{
    "elements": [
        {
            "id": 52200228,
            "lat": 47.6740707,
            "lon": 9.0656653,
            "tags": {
                "amenity": "public_bath",
                "bath:open_air": "yes",
                "bath:type": "lake",
                "name": "Arenenberger Badi",
                "sport": "swimming"
            },
            "type": "node"
        },
        {
            "id": 277629858,
            "lat": 47.1180505,
            "lon": 9.174455,
            "tags": {
                "amenity": "public_bath",
                "bath:open_air": "yes",
                "bath:type": "lake",
                "name": "Strandbad M\u00fchlehorn",
                "shower": "yes"
            },
            "type": "node"
        },
        {
            "id": 456036314,
            "lat": 47.3834052,
            "lon": 9.3938663,
            "tags": {
                "access": "yes",
                "bath:open_air": "yes",
                "contact:email": "badi-teufen@bluewin.ch",
                "contact:phone": "+41 71 333 55 03",
                "contact:website": "http://www.teufen.ch/xml_1/internet/de/application/d361/d120/f121.cfm",
                "fee": "yes",
                "leisure": "sports_centre",
                "name": "Freibad Teufen",
                "shower": "yes",
                "sport": "swimming",
                "water_park": "outdoor",
                "website": "http://www.teufen.ch/xml_1/internet/de/application/d361/d120/f121.cfm"
            },
            "type": "node"
        },
        {
            "id": 631879657,
            "lat": 46.8944453,
            "lon": 8.6071003,
            "tags": {
                "amenity": "public_bath",
                "bath:open_air": "yes",
                "bath:sand_bath": "yes",
                "bath:type": "lake",
                "name": "Badeinseln",
                "sport": "swimming"
            },
            "type": "node"
        },
        {
            "id": 1072932563,
            "lat": 47.18622,
            "lon": 8.277016,
            "tags": {
                "addr:city": "Baldegg",
                "addr:postcode": "6283",
                "addr:street": "Seebadstrasse",
                "amenity": "public_bath",
                "bath:open_air": "yes",
                "bath:type": "lake",
                "name": "Seebad Baldegg",
                "website": "http://seebad-baldegg.ch/"
            },
            "type": "node"
        },
        {
            "id": 1080951326,
            "lat": 47.099698,
            "lon": 8.469096,
            "tags": {
                "amenity": "public_bath",
                "bath:open_air": "yes",
                "bath:type": "lake",
                "fee": "no",
                "name": "Alte Badi Immensee"
            },
            "type": "node"
        },
        {
            "id": 1728558194,
            "lat": 47.4158291,
            "lon": 9.3417313,
            "tags": {
                "access": "yes",
                "bath:open_air": "yes",
                "covered": "no",
                "fee": "yes",
                "leisure": "swimming_pool",
                "name": "Freibad Lerchenfeld",
                "sport": "swimming",
                "water_park": "outdoor"
            },
            "type": "node"
        },
        {
            "id": 2218035420,
            "lat": 46.6220041,
            "lon": 9.181271,
            "tags": {
                "amenity": "public_bath",
                "architect": "Peter Zumthor",
                "bath:open_air": "yes",
                "bath:type": "thermal",
                "name": "Therme Vals",
                "source": "knowledge",
                "website": "http://www.therme-vals.ch",
                "wikidata": "Q675081",
                "wikipedia": "de:Therme Vals"
            },
            "type": "node"
        },
        {
            "id": 2327477051,
            "lat": 47.141185,
            "lon": 8.1361054,
            "tags": {
                "access": "yes",
                "amenity": "public_bath",
                "bath:open_air": "yes",
                "fee": "no",
                "image": "https://www.dropbox.com/s/hhhsnyj20vvz9id/Badi%20%28Mittel%29.jpeg?dl=0",
                "name": "Strandbad Nottwil",
                "shower": "yes",
                "toilets": "yes",
                "wheelchair": "yes"
            },
            "type": "node"
        },
        {
            "id": 2573478863,
            "lat": 47.197027,
            "lon": 8.8523842,
            "tags": {
                "access": "customers",
                "amenity": "public_bath",
                "bath:open_air": "yes",
                "bath:type": "lake",
                "dog": "leashed",
                "fee": "yes",
                "name": "Strandbad Lachen",
                "sport": "swimming"
            },
            "type": "node"
        },
        {
            "id": 2843590786,
            "lat": 47.212879,
            "lon": 8.2633525,
            "tags": {
                "amenity": "public_bath",
                "bath:open_air": "yes",
                "bath:type": "lake",
                "fee": "no",
                "name": "Seebad Gelfingen",
                "opening_hours": "Mo-Su 06:00-22:00"
            },
            "type": "node"
        },
        {
            "id": 3008686174,
            "lat": 47.3540911,
            "lon": 9.2809147,
            "tags": {
                "access": "yes",
                "bath:open_air": "yes",
                "description": "Das Freibad von Waldstatt AR ",
                "fee": "yes",
                "leisure": "sports_centre",
                "name": "Schwimmbad Waldstatt",
                "shower": "yes",
                "sport": "swimming",
                "website": "https://www.waldstatt.ch/unser-dorf/freizeit-sportanlagen/schwimmbad.html/295"
            },
            "type": "node"
        },
        {
            "id": 3394816042,
            "lat": 46.8056916,
            "lon": 6.7430397,
            "tags": {
                "amenity": "public_bath",
                "bath:open_air": "yes",
                "bath:sand_bath": "yes",
                "bath:type": "lake",
                "fee": "no",
                "name": "Plage de Goncerut",
                "sport": "swimming"
            },
            "type": "node"
        },
        {
            "id": 3413023900,
            "lat": 47.4799012,
            "lon": 8.3137535,
            "tags": {
                "amenity": "public_bath",
                "bath:open_air": "yes",
                "bath:type": "foot_bath",
                "fee": "no",
                "name": "Thermalbank",
                "opening_hours": "24/7",
                "tourism": "attraction"
            },
            "type": "node"
        },
        {
            "id": 3670051354,
            "lat": 47.5930286,
            "lon": 8.9565901,
            "tags": {
                "amenity": "public_bath",
                "bath:open_air": "yes",
                "leisure": "swimming_pool",
                "name": "Frankrichli",
                "opening_hours": "May 1-Sep 30: 09:00+",
                "sport": "swimming",
                "website": "https://badibeiz.ch/#badi"
            },
            "type": "node"
        },
        {
            "id": 3768663426,
            "lat": 47.6504821,
            "lon": 8.8835946,
            "tags": {
                "amenity": "public_bath",
                "bath:open_air": "yes",
                "bath:sand_bath": "yes",
                "bath:type": "lake",
                "name": "Strandbad Eschenz Buebebadi"
            },
            "type": "node"
        },
        {
            "id": 5377272894,
            "lat": 47.0026205,
            "lon": 8.4853456,
            "tags": {
                "alt_name": "Altes Strandbad",
                "amenity": "public_bath",
                "bath:open_air": "yes",
                "bath:sand_bath": "yes",
                "bath:type": "lake",
                "fee": "no",
                "loc_name": "Seebad",
                "name": "Lido",
                "scuba_diving:entry": "shore",
                "sport": "scuba_diving"
            },
            "type": "node"
        },
        {
            "id": 5769858718,
            "lat": 47.3831418,
            "lon": 9.3503147,
            "tags": {
                "amenity": "public_bath",
                "bath:open_air": "yes",
                "bath:sand_bath": "no",
                "bath:type": "river",
                "description": "Badeplatz wo der Rotbach und die Sitter zusammenflie\u00dft.",
                "fee": "no",
                "name": "Badeplatz Strom",
                "shower": "no",
                "sport": "swimming"
            },
            "type": "node"
        },
        {
            "id": 6258097420,
            "lat": 46.9111254,
            "lon": 7.5049524,
            "tags": {
                "amenity": "public_bath",
                "bath:open_air": "yes",
                "bath:type": "river",
                "fee": "yes",
                "name": "Giessenbad Belp"
            },
            "type": "node"
        },
        {
            "id": 6474983302,
            "lat": 47.2121328,
            "lon": 8.7052403,
            "tags": {
                "bath:open_air": "yes",
                "leisure": "sports_centre",
                "name": "Horn - Kleine Treppe",
                "sport": "swimming"
            },
            "type": "node"
        },
        {
            "id": 6474983303,
            "lat": 47.2115439,
            "lon": 8.7065545,
            "tags": {
                "bath:open_air": "yes",
                "fee": "no",
                "leisure": "sports_centre",
                "name": "Horn - Grosse Treppe",
                "sport": "swimming"
            },
            "type": "node"
        },
        {
            "id": 7776300769,
            "lat": 47.2911865,
            "lon": 8.6011563,
            "tags": {
                "amenity": "public_bath",
                "bath:open_air": "yes",
                "bath:type": "lake",
                "fee": "no",
                "name": "Steinrad",
                "wikidata": "Q1497051",
                "wikipedia": "de:Steinrad"
            },
            "type": "node"
        },
        {
            "id": 7776310928,
            "lat": 47.0480573,
            "lon": 7.1492936,
            "tags": {
                "bath:open_air": "yes",
                "bath:type": "lake",
                "fee": "no",
                "leisure": "swimming_area"
            },
            "type": "node"
        },
        {
            "id": 7776602863,
            "lat": 45.9337465,
            "lon": 8.9686765,
            "tags": {
                "amenity": "public_bath",
                "bath:open_air": "yes",
                "bath:sand_bath": "yes",
                "bath:type": "lake",
                "name": "Lido Comunale Maroggia"
            },
            "type": "node"
        },
        {
            "id": 7780890280,
            "lat": 47.12605,
            "lon": 9.3025149,
            "tags": {
                "amenity": "public_bath",
                "bath:open_air": "yes",
                "bath:sand_bath": "yes",
                "bath:type": "lake",
                "name": "Strandbad Walenstadt"
            },
            "type": "node"
        },
        {
            "id": 7780890442,
            "lat": 47.1146668,
            "lon": 9.2547856,
            "tags": {
                "amenity": "public_bath",
                "bath:open_air": "yes",
                "bath:sand_bath": "yes",
                "bath:type": "lake",
                "leisure": "swimming_pool",
                "name": "Strandbad Unterterzen"
            },
            "type": "node"
        },
        {
            "id": 7780909291,
            "lat": 47.4795804,
            "lon": 9.2558439,
            "tags": {
                "amenity": "public_bath",
                "bath:open_air": "yes",
                "bath:type": "lake",
                "name": "Weiherbadi Hauptwil"
            },
            "type": "node"
        },
        {
            "id": 7781211829,
            "lat": 46.6641475,
            "lon": 7.7333437,
            "tags": {
                "amenity": "public_bath",
                "bath:open_air": "yes",
                "bath:type": "lake",
                "name": "Seebad Lido Krattigen"
            },
            "type": "node"
        },
        {
            "id": 7781360513,
            "lat": 47.6756143,
            "lon": 8.8282764,
            "tags": {
                "bath:open_air": "yes",
                "bath:type": "river",
                "fee": "no",
                "leisure": "park",
                "name": "Strand Hemishofen",
                "sport": "swimming"
            },
            "type": "node"
        },
        {
            "id": 7802208024,
            "lat": 46.496666,
            "lon": 9.8706078,
            "tags": {
                "amenity": "public_bath",
                "bath:open_air": "yes",
                "bath:sand_bath": "yes",
                "bath:type": "lake",
                "fee": "no",
                "name": "Lej da Staz"
            },
            "type": "node"
        },
        {
            "id": 7817520361,
            "lat": 46.8613065,
            "lon": 7.1761348,
            "tags": {
                "amenity": "public_bath",
                "bath:open_air": "yes",
                "bath:sand_bath": "yes",
                "bath:type": "lake",
                "fee": "no",
                "name": "Bad Bonn",
                "nudism": "no",
                "sport": "swimming"
            },
            "type": "node"
        },
        {
            "id": 9177157955,
            "lat": 46.1093365,
            "lon": 8.765103,
            "tags": {
                "amenity": "public_bath",
                "bath:open_air": "yes",
                "bath:type": "lake",
                "fee": "no"
            },
            "type": "node"
        }
    ],
    "generator": "Overpass API 0.7.57 93a4d346",
    "osm3s": {
        "copyright": "The data included in this document is from www.openstreetmap.org. The data is made available under ODbL.",
        "timestamp_areas_base": "2022-02-17T14:28:14Z",
        "timestamp_osm_base": "2022-02-17T15:32:11Z"
    },
    "version": 0.6
}